[
  {
    "saasId": "88888888",
    "uid": "88888888205500",
    "authToken": null,
    "id": "0",
    "addressId": "0",
    "phone": "17612345678",
    "name": "测试用户0",
    "countryName": "中国",
    "countryCode": "chn",
    "provinceName": "甘肃省",
    "provinceCode": "620000",
    "cityName": "甘南藏族自治州",
    "cityCode": "623000",
    "districtName": "碌曲县",
    "districtCode": "623026",
    "detailAddress": "松日鼎盛大厦0层0号",
    "isDefault": 1,
    "addressTag": "",
    "latitude": "34.59103",
    "longitude": "102.48699",
    "storeId": null,
    "phoneNumber": "17612345678",
    "address": "甘肃省甘南藏族自治州碌曲县松日鼎盛大厦0层0号",
    "tag": ""
  },
  {
    "saasId": "88888888",
    "uid": "88888888205501",
    "authToken": null,
    "id": "1",
    "addressId": "1",
    "phone": "17612345678",
    "name": "测试用户1",
    "countryName": "中国",
    "countryCode": "chn",
    "provinceName": "甘肃省",
    "provinceCode": "620000",
    "cityName": "甘南藏族自治州",
    "cityCode": "623000",
    "districtName": "碌曲县",
    "districtCode": "623026",
    "detailAddress": "松日鼎盛大厦1层1号",
    "isDefault": 0,
    "addressTag": "公司",
    "latitude": "34.59103",
    "longitude": "102.48699",
    "storeId": null,
    "phoneNumber": "17612345678",
    "address": "甘肃省甘南藏族自治州碌曲县松日鼎盛大厦1层1号",
    "tag": "公司"
  },
  {
    "saasId": "88888888",
    "uid": "88888888205502",
    "authToken": null,
    "id": "2",
    "addressId": "2",
    "phone": "17612345678",
    "name": "测试用户2",
    "countryName": "中国",
    "countryCode": "chn",
    "provinceName": "甘肃省",
    "provinceCode": "620000",
    "cityName": "甘南藏族自治州",
    "cityCode": "623000",
    "districtName": "碌曲县",
    "districtCode": "623026",
    "detailAddress": "松日鼎盛大厦2层2号",
    "isDefault": 0,
    "addressTag": "公司",
    "latitude": "34.59103",
    "longitude": "102.48699",
    "storeId": null,
    "phoneNumber": "17612345678",
    "address": "甘肃省甘南藏族自治州碌曲县松日鼎盛大厦2层2号",
    "tag": "公司"
  },
  {
    "saasId": "88888888",
    "uid": "88888888205503",
    "authToken": null,
    "id": "3",
    "addressId": "3",
    "phone": "17612345678",
    "name": "测试用户3",
    "countryName": "中国",
    "countryCode": "chn",
    "provinceName": "甘肃省",
    "provinceCode": "620000",
    "cityName": "甘南藏族自治州",
    "cityCode": "623000",
    "districtName": "碌曲县",
    "districtCode": "623026",
    "detailAddress": "松日鼎盛大厦3层3号",
    "isDefault": 0,
    "addressTag": "公司",
    "latitude": "34.59103",
    "longitude": "102.48699",
    "storeId": null,
    "phoneNumber": "17612345678",
    "address": "甘肃省甘南藏族自治州碌曲县松日鼎盛大厦3层3号",
    "tag": "公司"
  },
  {
    "saasId": "88888888",
    "uid": "88888888205504",
    "authToken": null,
    "id": "4",
    "addressId": "4",
    "phone": "17612345678",
    "name": "测试用户4",
    "countryName": "中国",
    "countryCode": "chn",
    "provinceName": "甘肃省",
    "provinceCode": "620000",
    "cityName": "甘南藏族自治州",
    "cityCode": "623000",
    "districtName": "碌曲县",
    "districtCode": "623026",
    "detailAddress": "松日鼎盛大厦4层4号",
    "isDefault": 0,
    "addressTag": "公司",
    "latitude": "34.59103",
    "longitude": "102.48699",
    "storeId": null,
    "phoneNumber": "17612345678",
    "address": "甘肃省甘南藏族自治州碌曲县松日鼎盛大厦4层4号",
    "tag": "公司"
  },
  {
    "saasId": "88888888",
    "uid": "88888888205505",
    "authToken": null,
    "id": "5",
    "addressId": "5",
    "phone": "17612345678",
    "name": "测试用户5",
    "countryName": "中国",
    "countryCode": "chn",
    "provinceName": "甘肃省",
    "provinceCode": "620000",
    "cityName": "甘南藏族自治州",
    "cityCode": "623000",
    "districtName": "碌曲县",
    "districtCode": "623026",
    "detailAddress": "松日鼎盛大厦5层5号",
    "isDefault": 0,
    "addressTag": "公司",
    "latitude": "34.59103",
    "longitude": "102.48699",
    "storeId": null,
    "phoneNumber": "17612345678",
    "address": "甘肃省甘南藏族自治州碌曲县松日鼎盛大厦5层5号",
    "tag": "公司"
  },
  {
    "saasId": "88888888",
    "uid": "88888888205506",
    "authToken": null,
    "id": "6",
    "addressId": "6",
    "phone": "17612345678",
    "name": "测试用户6",
    "countryName": "中国",
    "countryCode": "chn",
    "provinceName": "甘肃省",
    "provinceCode": "620000",
    "cityName": "甘南藏族自治州",
    "cityCode": "623000",
    "districtName": "碌曲县",
    "districtCode": "623026",
    "detailAddress": "松日鼎盛大厦6层6号",
    "isDefault": 0,
    "addressTag": "公司",
    "latitude": "34.59103",
    "longitude": "102.48699",
    "storeId": null,
    "phoneNumber": "17612345678",
    "address": "甘肃省甘南藏族自治州碌曲县松日鼎盛大厦6层6号",
    "tag": "公司"
  },
  {
    "saasId": "88888888",
    "uid": "88888888205507",
    "authToken": null,
    "id": "7",
    "addressId": "7",
    "phone": "17612345678",
    "name": "测试用户7",
    "countryName": "中国",
    "countryCode": "chn",
    "provinceName": "甘肃省",
    "provinceCode": "620000",
    "cityName": "甘南藏族自治州",
    "cityCode": "623000",
    "districtName": "碌曲县",
    "districtCode": "623026",
    "detailAddress": "松日鼎盛大厦7层7号",
    "isDefault": 0,
    "addressTag": "公司",
    "latitude": "34.59103",
    "longitude": "102.48699",
    "storeId": null,
    "phoneNumber": "17612345678",
    "address": "甘肃省甘南藏族自治州碌曲县松日鼎盛大厦7层7号",
    "tag": "公司"
  },
  {
    "saasId": "88888888",
    "uid": "88888888205508",
    "authToken": null,
    "id": "8",
    "addressId": "8",
    "phone": "17612345678",
    "name": "测试用户8",
    "countryName": "中国",
    "countryCode": "chn",
    "provinceName": "甘肃省",
    "provinceCode": "620000",
    "cityName": "甘南藏族自治州",
    "cityCode": "623000",
    "districtName": "碌曲县",
    "districtCode": "623026",
    "detailAddress": "松日鼎盛大厦8层8号",
    "isDefault": 0,
    "addressTag": "公司",
    "latitude": "34.59103",
    "longitude": "102.48699",
    "storeId": null,
    "phoneNumber": "17612345678",
    "address": "甘肃省甘南藏族自治州碌曲县松日鼎盛大厦8层8号",
    "tag": "公司"
  },
  {
    "saasId": "88888888",
    "uid": "88888888205509",
    "authToken": null,
    "id": "9",
    "addressId": "9",
    "phone": "17612345678",
    "name": "测试用户9",
    "countryName": "中国",
    "countryCode": "chn",
    "provinceName": "甘肃省",
    "provinceCode": "620000",
    "cityName": "甘南藏族自治州",
    "cityCode": "623000",
    "districtName": "碌曲县",
    "districtCode": "623026",
    "detailAddress": "松日鼎盛大厦9层9号",
    "isDefault": 0,
    "addressTag": "公司",
    "latitude": "34.59103",
    "longitude": "102.48699",
    "storeId": null,
    "phoneNumber": "17612345678",
    "address": "甘肃省甘南藏族自治州碌曲县松日鼎盛大厦9层9号",
    "tag": "公司"
  }
]